
{
  "id": 1,
  "nameR": "Linea_Rossa",
  "emails": "admin@info.it",
  "stopListA":
  [
    {
    "nome": "Corso Peschiera 191- Agos Ducato",
    "nums": 1,
    "time": "8:00",
    "lat": "45.0658943",
    "lng": "7.6456118"
    },
    {
      "nome": "Piazza Sabotino 38- Unicredit",
      "nums": 2,
      "time": "8:07",
      "lat": "45.062515",
      "lng": "7.6525057"

    },
    {
      "nome": "Corso Peschiera 145- Compass Gruppo Mediobanca",
      "nums": 3,
      "time": "8:10",
      "lat": "45.0629971",
      "lng": "7.65204"
    },
    {
      "nome": "Corso Francesco Ferrucci 112- Eaton",
      "nums": 4,
      "time": "8:20",
      "lat": "45.0619957",
      "lng": "7.6552601"
    },
    {
      "nome": "Corso Castelfidardo- Fermata 3281",
      "nums": 5,
      "time": "8:25",
      "lat": "45.061627",
      "lng": "7.658498"
    }
  ],
  "stopListB": [
    {
      "nome": "Corso Castelfidardo- Fermata 3281",
      "nums": 1,
      "time": "16:00",
      "lat": "45.061627",
      "lng": "7.658498"
    },
    {
      "nome": "Corso Francesco Ferrucci 112- Eaton",
      "nums": 2,
      "time": "16:05",
      "lat": "45.0619957",
      "lng": "7.6552601"
    },
    {
      "nome": "Corso Peschiera 145- Compass Gruppo Mediobanca",
      "nums": 3,
      "time": "16:10",
      "lat": "45.0629971",
      "lng": "7.65204"
    },
    {
      "nome": "Piazza Sabotino 38- Unicredit",
      "nums": 4,
      "time": "16:20",
      "lat": "45.062515",
      "lng": "7.6525057"
    },
    {
      "nome": "Corso Peschiera 191- Agos Ducato",
      "nums": 5,
      "time": "16:25",
      "lat": "45.0658943",
      "lng": "7.6456118"
    }]
}
